name,cuisine,address,latitude,longitude,amenity,source,area,rating,review_count
Ayam Lodho Malang,Unknown,"Ayam Lodho Malang, Jalan Karya Timur 1, Malang 65122, East Java, Indonesia",-7.953006899757888,112.64052360378248,"['building', 'building.catering', 'catering', 'catering.restaurant']",geoapify,Kota Malang,4.6,1596
Sudi Mampir,Unknown,"Sudi Mampir, Jalan Kesatrian Dalam 32, Malang 65121, East Java, Indonesia",-7.978436099759394,112.64326169999998,"['catering', 'catering.cafe', 'internet_access', 'wheelchair', 'wheelchair.yes']",geoapify,Kota Malang,3.9,1045
Toko Oen,Unknown,"Toko Oen, Jalan Jenderal Basuki Rachmat 5, Malang 65119, East Java, Indonesia",-7.98070299975953,112.63022009999999,"['catering', 'catering.restaurant', 'catering.restaurant.western']",geoapify,Kota Malang,4.2,942
Lafferie,Unknown,"Lafferie, Jalan Lembah Dieng 6, Malang 65115, East Java, Indonesia",-7.970398699758908,112.60322209999998,"['catering', 'catering.restaurant', 'vegan', 'vegan.only']",geoapify,Kota Malang,4.4,301
D'chareso,Unknown,"D'chareso, Jalan Laksda Adi Sucipto 190, Malang 65126, East Java, Indonesia",-7.945269099757433,112.65089789999999,"['catering', 'catering.cafe', 'internet_access', 'internet_access.free']",geoapify,Kota Malang,4.5,889
The Arbanat,Unknown,"The Arbanat, Jalan Terusan Dieng, Malang 65115, East Java, Indonesia",-7.972186599759022,112.60731279537917,"['building', 'building.catering', 'catering', 'catering.cafe']",geoapify,Kota Malang,4.4,1432
Vegan Mie pPanjang,Unknown,"Vegan Mie pPanjang, Jalan Letnan Jenderal Sunandar Priyosudarmo 22-24, Malang 65122, East Java, Indonesia",-7.953830699757925,112.64568109999999,"['catering', 'catering.restaurant', 'vegan', 'vegan.only']",geoapify,Kota Malang,4.1,1006
Martabak Agung Resto,Unknown,"Martabak Agung Resto, Jalan Merdeka Timur 2F, Malang 65118, East Java, Indonesia",-7.98349039975969,112.63188179999999,"['catering', 'catering.restaurant']",geoapify,Kota Malang,4.2,1342
Warung Mbah Riman Barokah,Unknown,"Warung Mbah Riman Barokah, Jalan Candi Trowulan 68, Malang 65125, East Java, Indonesia",-7.941335799757193,112.63775209999999,"['catering', 'catering.restaurant']",geoapify,Kota Malang,3.8,921
Tipsy Lion Malang,Unknown,"Tipsy Lion Malang, Jalan Soekarno Hatta 18, Malang 65141, East Java, Indonesia",-7.944416999757374,112.61983119999998,"['catering', 'catering.cafe', 'internet_access', 'internet_access.for_customers']",geoapify,Kota Malang,4.0,1955
Pizza Hut Delivery Sawojajar,Unknown,"Pizza Hut Delivery, Jalan Danau Toba 1, Malang 65139, East Java, Indonesia",-7.9814113997595735,112.6540448,"['catering', 'catering.restaurant', 'catering.restaurant.pizza']",geoapify,Kota Malang,3.7,1036
Ayam Benjos,Unknown,"Ayam Benjos, Jalan Danau Toba 12, Malang 65139, East Java, Indonesia",-7.9794886997594565,112.65923199999999,"['catering', 'catering.restaurant']",geoapify,Kota Malang,4.2,556
Depot 77 Sawojajar Halalan Toyiban,Unknown,"Depot 77 Sawojajar Halalan Toyiban, Jalan Danau Bratan H1 - Q33, Malang 65139, East Java, Indonesia",-7.978333399759375,112.66708419999999,"['catering', 'catering.restaurant']",geoapify,Kota Malang,4.5,1455
Mifeng Kopitiam,Unknown,"Mifeng Kopitiam, Ijen Boulevard 94, RW 07 Kel. Oro Oro Dowo, Klojen Kota Malang, Malang 65119, East Java, Indonesia",-7.963045099758472,112.62578179999998,"['catering', 'catering.restaurant', 'catering.restaurant.regional', 'halal']",geoapify,Kota Malang,4.5,1305
Cigyl and Craft,Unknown,"Cigyl and Craft, Ijen Boulevard 25a, RW 07 Kel. Oro Oro Dowo, Klojen Kota Malang, Malang 65115, East Java, Indonesia",-7.971999999759011,112.6208525,"['catering', 'catering.cafe']",geoapify,Kota Malang,3.6,1037
Coto Makassar,Unknown,"Coto Makassar, Jalan Widodaren 99, Malang 65119, East Java, Indonesia",-7.979777199759478,112.62702199999998,"['catering', 'catering.restaurant', 'catering.restaurant.indonesian', 'internet_access', 'internet_access.free']",geoapify,Kota Malang,4.0,1731
Teman Nongkrong Malang,Unknown,"Teman Nongkrong Malang, Jalan Jaksa Agung Suprapto 40 B4, Malang 65115, East Java, Indonesia",-7.967204299758717,112.6339554,"['catering', 'catering.cafe']",geoapify,Kota Malang,4.1,1773
Sego Tempong ABG,Unknown,"Sego Tempong ABG, Jalan Candi Waringin Lawang, Malang 65125, East Java, Indonesia",-7.942745399757281,112.63761459999999,"['catering', 'catering.restaurant', 'catering.restaurant.indonesian', 'wheelchair', 'wheelchair.limited']",geoapify,Kota Malang,3.8,1315
Waroeng Steak & Shake,Unknown,"Waroeng Steak & Shake, Arjuno St., Malang 65119, East Java, Indonesia",-7.97906429975943,112.6263111,"['catering', 'catering.restaurant']",geoapify,Kota Malang,4.2,68
TUKU - Malang,Unknown,"TUKU - Malang, Jombang St. 27, Malang 65115, East Java, Indonesia",-7.967295999758731,112.61559249999999,"['catering', 'catering.cafe']",geoapify,Kota Malang,4.1,1948
Oppa Express,Unknown,"Oppa Express, Jalan Jenderal Basuki Rachmat 41, RW 04 Kel. Oro Oro Dowo, Klojen Kota Malang, Malang 65119, East Java, Indonesia",-7.978663599759403,112.6292867,"['catering', 'catering.cafe']",geoapify,Kota Malang,3.6,1868
Kolektibles,Unknown,"Kolektibles, Jalan Puncak Tidar, Pandanlandung 65146, East Java, Indonesia",-7.964412799758557,112.5929172,"['catering', 'catering.cafe']",geoapify,Kota Malang,4.1,1470
Maju Jaya 57,Unknown,"Maju Jaya 57, Jalan Arif Margono 6, Malang 65117, East Java, Indonesia",-7.985522599759819,112.62425389999999,"['catering', 'catering.restaurant']",geoapify,Kota Malang,4.6,821
SA Asli Masakan Padang,Unknown,"SA Asli Masakan Padang, Jalan Terusan Dieng, Malang 65115, East Java, Indonesia",-7.972801849759056,112.61244476721356,"['building', 'building.catering', 'catering', 'catering.restaurant']",geoapify,Kota Malang,4.4,1368
Rumah Makan Kairo Jagalan,Unknown,"Rumah Makan Kairo Jagalan, Kapten Piere Tendean 1, Malang 65117, East Java, Indonesia",-7.986776049759885,112.6284335,"['building', 'building.catering', 'catering', 'catering.restaurant', 'catering.restaurant.asian']",geoapify,Kota Malang,4.2,183
Warung Prasmanan Pagi 99,Unknown,"Warung Prasmanan Pagi 99, Jalan Terusan Sulfat A4, Malang 65139, East Java, Indonesia",-7.966607599758685,112.66006865,"['building', 'building.catering', 'building.public_and_civil', 'catering', 'catering.restaurant', 'catering.restaurant.indonesian', 'halal']",geoapify,Kota Malang,3.5,1806
Depot Gang Djangkrik,Unknown,"Depot Gang Djangkrik, Kawi Street 26, Malang 65100, East Java, Indonesia",-7.975403299759204,112.61924708569114,"['building', 'building.catering', 'building.commercial', 'catering', 'catering.restaurant']",geoapify,Kota Malang,4.4,633
Kopi Kenangan,Unknown,"Kopi Kenangan, Bondowoso St., Malang 65115, East Java, Indonesia",-7.967182399758723,112.61428976490825,"['access', 'access.yes', 'building', 'building.catering', 'catering', 'catering.cafe', 'catering.cafe.coffee', 'catering.cafe.coffee_shop', 'halal', 'halal.only']",geoapify,Kota Malang,3.8,1519
Bakso Bakar Pak Man Malangf,Unknown,"Bakso Bakar Pak Man Malangf, Jalan Profesor Mohammad Yamin, Malang 65117, East Java, Indonesia",-7.989600499760056,112.63082999999999,"['catering', 'catering.fast_food']",geoapify,Kota Malang,3.9,1786
Soto Daging Madura,Unknown,"Soto Daging Madura, Jalan Nusa Kambangan, Malang 65117, East Java, Indonesia",-7.988586299759995,112.62943699999998,"['catering', 'catering.fast_food']",geoapify,Kota Malang,4.8,123
Warung Rujak Scui,Unknown,"Warung Rujak Scui, Halmahera 2, Malang 65117, East Java, Indonesia",-7.987827299759958,112.6293698,"['catering', 'catering.fast_food']",geoapify,Kota Malang,3.6,1428
Tahu Campur Ichwan,Unknown,"Tahu Campur Ichwan, Jalan Kapten Pierre Tendean, Malang 65117, East Java, Indonesia",-7.987261299759921,112.6302226,"['catering', 'catering.fast_food']",geoapify,Kota Malang,4.4,961
Warung Facebook,Unknown,"Warung Facebook, Jalan Halmahera, Malang 65117, East Java, Indonesia",-7.9881601997599665,112.6299181,"['catering', 'catering.cafe']",geoapify,Kota Malang,3.9,1416
Warung Susu Kopi STMJ,Unknown,"Warung Susu Kopi STMJ, Jalan Nusa Kambangan, Malang 65117, East Java, Indonesia",-7.988464499759979,112.6295442,"['catering', 'catering.cafe', 'catering.cafe.coffee', 'catering.cafe.coffee_shop']",geoapify,Kota Malang,3.6,1238
Warung Soto Pak Ali,Unknown,"Warung Soto Pak Ali, Jalan Halmahera, Malang 65117, East Java, Indonesia",-7.988283899759979,112.62997879999999,"['catering', 'catering.fast_food']",geoapify,Kota Malang,3.9,1628
Warung Bakso Lek Mi,Unknown,"Warung Bakso Lek Mi, Kapten Piere Tendean 3, Malang 65117, East Java, Indonesia",-7.987362099759918,112.629304,"['catering', 'catering.fast_food']",geoapify,Kota Malang,4.5,1581
Es Ketan SMKN 4 Malang,Unknown,"Es Ketan SMKN 4 Malang, Jalan Tanimbar, Malang 65117, East Java, Indonesia",-7.989963899760084,112.6269577,"['catering', 'catering.restaurant']",geoapify,Kota Malang,4.6,1604
Tahu Lontong Lamongan Nusakambangan,Unknown,"Tahu Lontong Lamongan Nusakambangan, Jalan Nusa Kambangan, Malang 65117, East Java, Indonesia",-7.988290699759986,112.62781270000002,"['catering', 'catering.restaurant']",geoapify,Kota Malang,3.9,1853
Tahu Lontong Bu Ita,Unknown,"Tahu Lontong Bu Ita, Piere Tendean 1D, Malang 65117, East Java, Indonesia",-7.987698699759949,112.62873709999998,"['catering', 'catering.restaurant']",geoapify,Kota Malang,4.6,1127
Mie Pangsit Lezat Cak To,Unknown,"Mie Pangsit Lezat Cak To, Jalan Nusa Kambangan, Malang 65117, East Java, Indonesia",-7.98805039975996,112.6272196,"['catering', 'catering.restaurant']",geoapify,Kota Malang,4.5,948
Bebek Goreng H. Slamet,Unknown,"Bebek Goreng H. Slamet, Welirang St. 41, RW 07 Kel. Oro Oro Dowo, Klojen Kota Malang, Malang 65112, East Java, Indonesia",-7.972721799759046,112.6242995,"['catering', 'catering.restaurant', 'catering.restaurant.indonesian']",geoapify,Kota Malang,4.3,593
Ikan Bakar 52,Unknown,"Ikan Bakar 52, Jalan Kyai Haji Agus Salim 11, Malang 65118, East Java, Indonesia",-7.98400239975973,112.63304839999999,"['catering', 'catering.restaurant', 'catering.restaurant.indonesian']",geoapify,Kota Malang,4.2,540
Ichiban Sushi,Unknown,"Ichiban Sushi, Jalan Langsep Barat I, Malang 65115, East Java, Indonesia",-7.973712099759112,112.61183659999999,"['catering', 'catering.restaurant', 'catering.restaurant.japanese', 'catering.restaurant.sushi']",geoapify,Kota Malang,4.3,575
Rice Bowl,Unknown,"Rice Bowl, Jalan Terusan Dieng, Malang 65115, East Java, Indonesia",-7.973660599759099,112.61143419999999,"['catering', 'catering.restaurant', 'catering.restaurant.indonesian']",geoapify,Kota Malang,3.5,1926
crispycornermalang,Unknown,"crispycornermalang, Jalan Pattimura 14, Malang 65111, East Java, Indonesia",-7.973451999759104,112.6361108,"['catering', 'catering.cafe', 'internet_access']",geoapify,Kota Malang,4.7,1528
MAXIM STRONG RIDER,Unknown,"MAXIM STRONG RIDER, Jalan Sawojajar 20, Malang 65139, East Java, Indonesia",-7.973681899759099,112.6556219,"['catering', 'catering.cafe', 'internet_access']",geoapify,Kota Malang,4.7,1418
DImsum Sewuan,Unknown,"DImsum Sewuan, Kh. Ahmad Dahlan Gang 1 464, Malang 65118, East Java, Indonesia",-7.985450899759808,112.63463179999998,"['catering', 'catering.restaurant']",geoapify,Kota Malang,4.8,1206
Richeese Factory Ijen,Unknown,"Richeese Factory Ijen, Ijen St., RW 05 Kel. Oro Oro Dowo, Klojen Kota Malang, Malang 65115, East Java, Indonesia",-7.965716899758635,112.6246119,"['catering', 'catering.fast_food']",geoapify,Kota Malang,3.6,1405
Pecel Kawi,Unknown,"Pecel Kawi, Kawi Street, Malang 65100, East Java, Indonesia",-7.975694899759234,112.62001569999998,"['catering', 'catering.restaurant', 'catering.restaurant.indonesian', 'catering.restaurant.regional']",geoapify,Kota Malang,4.3,991
MAXIM RONGGOLAWE KLOJEN,Unknown,"MAXIM RONGGOLAWE KLOJEN, Jalan Ronggolawe 23, Malang 65126, East Java, Indonesia",-7.971374799758974,112.643634,"['catering', 'catering.cafe', 'catering.cafe.coffee', 'catering.cafe.coffee_shop', 'internet_access']",geoapify,Kota Malang,3.9,809
Lafayette Coffee and Eatery,Unknown,"Lafayette Coffee and Eatery, Semeru St. 2, RW 04 Kel. Oro Oro Dowo, Klojen Kota Malang, Malang 65119, East Java, Indonesia",-7.9762434997592635,112.62915679999999,"['catering', 'catering.cafe', 'internet_access', 'internet_access.for_customers']",geoapify,Kota Malang,4.7,1790
Gerbang Keluar UB Watugong,Unknown,"Gerbang Keluar UB Watugong, Jalan Watu Gong, Malang 16145, East Java, Indonesia",-7.949031399757645,112.61160279999999,"['catering', 'catering.restaurant']",geoapify,Kota Malang,4.7,806
Mi Gacoan Sawojajar,Unknown,"Mi Gacoan Sawojajar, Jalan Dirgantara, Malang 65139, East Java, Indonesia",-7.9810979997595535,112.6537118,"['catering', 'catering.restaurant', 'catering.restaurant.indonesian']",geoapify,Kota Malang,3.7,433
Martabak Gudang Rasa,Unknown,"Martabak Gudang Rasa, Jalan Danau Toba, Malang 65139, East Java, Indonesia",-7.979078699759426,112.65943559999998,"['catering', 'catering.fast_food']",geoapify,Kota Malang,4.2,586
Ayam Bakar Wong Solo,Unknown,"Ayam Bakar Wong Solo, Jalan Widodaren 1, Malang 65119, East Java, Indonesia",-7.979530699759458,112.62660259999998,"['catering', 'catering.restaurant', 'catering.restaurant.indonesian', 'wheelchair', 'wheelchair.limited']",geoapify,Kota Malang,4.5,506
Depot Mie Koh'Oen 5758,Unknown,"Depot Mie Koh'Oen 5758, Jalan Muhammad Husni Thamrin 4, Malang 65111, East Java, Indonesia",-7.97193729975901,112.6354916,"['catering', 'catering.restaurant', 'catering.restaurant.noodle']",geoapify,Kota Malang,4.2,296
Kamulyan Tri's Pecel Stall,Unknown,"Kamulyan Tri's Pecel Stall, Jalan Simpang Sulfat Utara 46, Malang 65126, East Java, Indonesia",-7.9582525997581985,112.6559988,"['catering', 'catering.restaurant', 'catering.restaurant.indonesian', 'halal']",geoapify,Kota Malang,4.3,362
Warung Nasi Campur 14,Unknown,"Warung Nasi Campur 14, Jalan Pandanwangi Inside, Malang 65124, East Java, Indonesia",-7.95792599975817,112.66111,"['catering', 'catering.cafe']",geoapify,Kota Malang,4.3,1660
H&U Coffee and Eatery,Unknown,"H&U Coffee and Eatery, Jalan Majapahit 1- K, Malang 65119, East Java, Indonesia",-7.979619499759457,112.6312901,"['catering', 'catering.cafe', 'catering.cafe.cake', 'internet_access', 'internet_access.for_customers']",geoapify,Kota Malang,3.9,650
Laoban Kopitiam,Unknown,"Laoban Kopitiam, Jalan Soekarno-Hatta Indah, Malang 65142, East Java, Indonesia",-7.940718999757154,112.63005159999999,"['catering', 'catering.restaurant', 'catering.restaurant.chinese']",geoapify,Kota Malang,4.5,1550
Bubur Ayam Agus,Unknown,"Bubur Ayam Agus, Jalan Simpang Wilis Indah 3, Malang 65115, East Java, Indonesia",-7.970676799758924,112.61632509999998,"['catering', 'catering.restaurant']",geoapify,Kota Malang,4.6,1313
Morning Mate,Unknown,"Morning Mate, Jalan Candi Trowulan 59, Malang 65125, East Java, Indonesia",-7.941031299757173,112.6376533,"['catering', 'catering.cafe']",geoapify,Kota Malang,4.8,857
Sumbersareh,Unknown,"Sumbersareh, Jalan Pisang Agung V, Malang 65115, East Java, Indonesia",-7.973939399759125,112.6042511,"['catering', 'catering.restaurant', 'catering.restaurant.noodle']",geoapify,Kota Malang,3.8,477
Kopi Hamur Mbah Indut,Unknown,"Kopi Hamur Mbah Indut, Jalan Arif Rahman Hakim 2, Malang 65119, East Java, Indonesia",-7.978935299759416,112.6282292,"['catering', 'catering.cafe']",geoapify,Kota Malang,3.9,1675
Jasa Ayah,Unknown,"Jasa Ayah, Jalan Candi Trowulan, Malang 65125, East Java, Indonesia",-7.940264899757129,112.63586779999999,"['catering', 'catering.restaurant', 'catering.restaurant.malay', 'catering.restaurant.malaysian', 'internet_access', 'internet_access.free']",geoapify,Kota Malang,4.3,395
Dapoer Limboek,Unknown,"Dapoer Limboek, Jalan Brigadir Jenderal Slamet Riyadi, RW 03 Kel. Oro Oro Dowo, Klojen Kota Malang, Malang 65115, East Java, Indonesia",-7.966707499758694,112.6290387,"['catering', 'catering.restaurant']",geoapify,Kota Malang,4.1,940
Kopi Wojo,Unknown,"Kopi Wojo, Jalan Jenderal Basuki Rachmat, RW 04 Kel. Oro Oro Dowo, Klojen Kota Malang, Malang 65119, East Java, Indonesia",-7.978996399759426,112.6288045,"['catering', 'catering.cafe']",geoapify,Kota Malang,4.2,709
Basra Kitchen,Unknown,"Basra Kitchen, Jalan Arif Rahman Hakim 2 986, Malang 65119, East Java, Indonesia",-7.978360099759386,112.62865469999998,"['catering', 'catering.cafe']",geoapify,Kota Malang,4.1,576
Hamur Utea,Unknown,"Hamur Utea, Jalan Jenderal Basuki Rachmat, RW 04 Kel. Oro Oro Dowo, Klojen Kota Malang, Malang 65119, East Java, Indonesia",-7.978195399759376,112.62965509999998,"['catering', 'catering.cafe']",geoapify,Kota Malang,3.7,517
Soto Gunung Mbah Djie,Unknown,"Soto Gunung Mbah Djie, Jalan Sigura - Gura 9, Malang 16145, East Java, Indonesia",-7.957957599758164,112.6107049,"['catering', 'catering.restaurant', 'catering.restaurant.indonesian']",geoapify,Kota Malang,3.6,1229
Bakso Malang Cak Cull Sigura-Gura,Unknown,"Bakso Malang Cak Cull Sigura-Gura, Jalan Sigura - Gura 34, Malang 16145, East Java, Indonesia",-7.957742699758152,112.60759319999998,"['catering', 'catering.restaurant', 'catering.restaurant.indonesian']",geoapify,Kota Malang,3.9,1841
Beken - Bebek Kendang,Unknown,"Beken - Bebek Kendang, Jalan Terusan Sigura-Gura Barat 1A, Malang 16145, East Java, Indonesia",-7.9576661997581555,112.60655539999999,"['catering', 'catering.restaurant']",geoapify,Kota Malang,3.9,1177
Mie Gacoan,Unknown,"Mie Gacoan, Jalan Pajajaran, Malang 65111, East Java, Indonesia",-7.975898799759242,112.6361493,"['catering', 'catering.restaurant', 'catering.restaurant.noodle']",geoapify,Kota Malang,4.5,1734
Wwrung Bu Ana,Unknown,"Wwrung Bu Ana, Jalan J. A Suprapto II, Malang 65111, East Java, Indonesia",-7.96735289975873,112.63304789999998,"['catering', 'catering.fast_food']",geoapify,Kota Malang,4.0,1908
Crème,Unknown,"Crème, Jalan Simpang Borobudur 1, Malang 65125, East Java, Indonesia",-7.939486099757085,112.63887119999998,"['catering', 'catering.cafe', 'internet_access', 'wheelchair', 'wheelchair.limited']",geoapify,Kabupaten Malang,4.4,1540
Warung Nasi Matos Bu Kesy,Unknown,"Warung Nasi Matos Bu Kesy, Jalan Gajayana 16, Malang 16145, East Java, Indonesia",-7.948007399757579,112.60885449999999,"['catering', 'catering.restaurant', 'catering.restaurant.indonesian', 'halal', 'vegetarian']",geoapify,Kota Malang,4.0,1840
Critasena,Unknown,"Critasena, Jalan Belakang Rumah Sakit Umum, Malang 65119, East Java, Indonesia",-7.9758032997592325,112.63159569999999,"['catering', 'catering.cafe', 'internet_access']",geoapify,Kota Malang,4.8,762
OYI! Buttermilk Chicken,Unknown,"OYI! Buttermilk Chicken, Jalan Gajayana, Kelurahan Dinoyo, Kecamatan Lowokwaru 65112, East Java, Indonesia",-7.944132799757362,112.6097935,"['catering', 'catering.fast_food']",geoapify,Kota Malang,4.7,658
Vens Coffee,Unknown,"Vens Coffee, Jalan Candi Trowulan Kav 1, Malang 65142, East Java, Indonesia",-7.939548899757084,112.6330511,"['catering', 'catering.cafe']",geoapify,Kabupaten Malang,3.6,729
Labore Coffee Eatery,Unknown,"Labore Coffee Eatery, 25, Malang 65142, East Java, Indonesia",-7.9393278997570755,112.630696,"['catering', 'catering.cafe']",geoapify,Kabupaten Malang,3.8,1182
Hobbies Kitchen,Unknown,"Hobbies Kitchen, 27, Malang 65142, East Java, Indonesia",-7.939262799757063,112.63056989999998,"['catering', 'catering.cafe']",geoapify,Kabupaten Malang,4.3,833
Monkey Garage,Unknown,"Monkey Garage, 34, Malang 65142, East Java, Indonesia",-7.938640999757041,112.62910399999998,"['catering', 'catering.cafe']",geoapify,Kabupaten Malang,4.2,1290
Levels,Unknown,"Levels, Jalan Borobudur 26, Malang 65142, East Java, Indonesia",-7.939068399757055,112.6364505,"['catering', 'catering.cafe']",geoapify,Kabupaten Malang,3.8,353
Vosco Coffee,Unknown,"Vosco Coffee, Jalan Borobudur 27, Malang 65142, East Java, Indonesia",-7.940168199757121,112.6376659,"['catering', 'catering.cafe']",geoapify,Kota Malang,4.1,1313
Epic Culinary,Unknown,"Epic Culinary, Jalan Candi Trowulan Kav 17, Malang 65142, East Java, Indonesia",-7.939584799757089,112.63333639999999,"['catering', 'catering.cafe']",geoapify,Kabupaten Malang,4.0,415
Teko Coffee Shop,Unknown,"Teko Coffee Shop, 38A, Malang 65141, East Java, Indonesia",-7.953713399757927,112.6319169,"['catering', 'catering.cafe']",geoapify,Kota Malang,3.8,1691
Justice Corner,Unknown,"Justice Corner, 11A, Malang 65141, East Java, Indonesia",-7.95611379975807,112.631717,"['catering', 'catering.cafe']",geoapify,Kota Malang,4.5,483
DW Coffee Shop,Unknown,"DW Coffee Shop, 11, Malang 65145, East Java, Indonesia",-7.9617691997583995,112.6210363,"['catering', 'catering.cafe']",geoapify,Kota Malang,4.0,321
Circle Cafe & Resto,Unknown,"Circle Cafe & Resto, D414, Malang 65141, East Java, Indonesia",-7.941516499757203,112.6228244,"['catering', 'catering.cafe']",geoapify,Kota Malang,4.1,455
Warung Samudra,Unknown,"Warung Samudra, Jalan Mergan, Malang 65147, East Java, Indonesia",-7.983720399759708,112.61419829267663,"['building', 'building.catering', 'catering', 'catering.restaurant']",geoapify,Kota Malang,4.2,1765
Madame Wang Secret Garden,Unknown,"Madame Wang Secret Garden, Jalan Telomoyo 12, Malang 65115, East Java, Indonesia",-7.97282799975906,112.61899789546055,"['building', 'building.catering', 'catering', 'catering.restaurant', 'catering.restaurant.indonesian']",geoapify,Kota Malang,4.3,201
Cafetaria Citra Land UB,Unknown,"Cafetaria Citra Land UB, Jalan Terusan Cikampek, Malang 65113, East Java, Indonesia",-7.9528804497578705,112.61678736710303,"['building', 'building.catering', 'catering', 'catering.cafe', 'internet_access']",geoapify,Kota Malang,4.1,1031
Kedai Ciamso,Unknown,"Kedai Ciamso, Jalan Terusan Dieng 34, Malang 65115, East Java, Indonesia",-7.972881449759063,112.61283437332699,"['building', 'building.catering', 'catering', 'catering.restaurant']",geoapify,Kota Malang,3.5,1406
Warung Makan Soto Lombok,Unknown,"Warung Makan Soto Lombok, Jalan Lombok, Malang 65117, East Java, Indonesia",-7.986518749759881,112.62613251182128,"['building', 'building.catering', 'catering', 'catering.restaurant']",geoapify,Kota Malang,4.3,683
McDonald's MT Haryono Malang,Unknown,"McDonald's MT Haryono Malang, Jalan Watu Gong, Malang 16145, East Java, Indonesia",-7.946946299757521,112.61267829999998,"['building', 'building.catering', 'catering', 'catering.fast_food', 'catering.fast_food.burger']",geoapify,Kota Malang,4.2,138
Bakso Tengkleng,Unknown,"Bakso Tengkleng, Jalan Terusan Sigura-Gura Barat, Malang 16145, East Java, Indonesia",-7.95768224975816,112.60681327417493,"['building', 'building.catering', 'catering', 'catering.restaurant']",geoapify,Kota Malang,3.8,831
Grand Food Court,Unknown,"Grand Food Court, Jalan Candi Kidal, Malang 65125, East Java, Indonesia",-7.9431760997572995,112.64087352841314,"['building', 'building.catering', 'catering', 'catering.restaurant']",geoapify,Kota Malang,3.8,1254
Green Leaf,Unknown,"Green Leaf, Army hero of RI Students St., RW 07 Kel. Oro Oro Dowo, Klojen Kota Malang, Malang 65115, East Java, Indonesia",-7.967257499758725,112.62127768977953,"['building', 'building.catering', 'building.commercial', 'catering', 'catering.restaurant']",geoapify,Kota Malang,3.8,230
Kedai Kopi,Unknown,"Kedai Kopi, Jalan Simpang Ijen, RW 10 Kel. Oro Oro Dowo, Klojen Kota Malang, Malang 65115, East Java, Indonesia",-7.966356349758671,112.62003025367852,"['building', 'building.catering', 'catering', 'catering.cafe']",geoapify,Kota Malang,4.5,1723
Warung Marung,Unknown,"Warung Marung, Jalan Watu Gong, Malang 16145, East Java, Indonesia",-7.947371499757549,112.61228105,"['building', 'building.catering', 'catering', 'catering.restaurant']",geoapify,Kota Malang,4.1,1170
Ayam dower,Unknown,"Ayam dower, Jalan Gajayana, Malang 16145, East Java, Indonesia",-7.947557699757555,112.60860871295418,"['building', 'building.catering', 'catering', 'catering.restaurant']",geoapify,Kota Malang,4.2,1557
Pizza Hut,Unknown,"Pizza Hut, Jalan Ciliwung, Malang 65122, East Java, Indonesia",-7.951712399757808,112.63949487864184,"['building', 'building.catering', 'catering', 'catering.restaurant', 'catering.restaurant.pizza']",geoapify,Kota Malang,3.9,937
Bingsoo,Unknown,"Bingsoo, Jalan Bendungan Wonogiri, Malang 16145, East Java, Indonesia",-7.960871799758348,112.61337056832238,"['building', 'building.catering', 'catering', 'catering.cafe']",geoapify,Kota Malang,4.2,1586
MaLiBu Steak 'n' Pizza,Unknown,"MaLiBu Steak 'n' Pizza, Jalan Puncak Mandala, Malang 16145, East Java, Indonesia",-7.965457249758623,112.605228,"['building', 'building.catering', 'catering', 'catering.fast_food']",geoapify,Kota Malang,3.7,326
Rumah Makan Kaliurang,Unknown,"Rumah Makan Kaliurang, Jalan Kaliurang, Malang 65111, East Java, Indonesia",-7.962737399758456,112.63215371648033,"['building', 'building.catering', 'catering', 'catering.restaurant']",geoapify,Kota Malang,4.4,1479
Java Dancer,Unknown,"Java Dancer Coffee, Jalan Simpang Ijen, RW 10 Kel. Oro Oro Dowo, Klojen Kota Malang, Malang 65115, East Java, Indonesia",-7.9650556997585955,112.62068758423999,"['building', 'building.catering', 'catering', 'catering.restaurant']",geoapify,Kota Malang,4.3,1452
Mamah Sum,Unknown,"Mamah Sum, Jalan Simpang Ijen, RW 10 Kel. Oro Oro Dowo, Klojen Kota Malang, Malang 65115, East Java, Indonesia",-7.965950049758643,112.62029201626041,"['building', 'building.catering', 'catering', 'catering.restaurant']",geoapify,Kota Malang,4.0,1914
Batavia Resto,Unknown,"Batavia Resto, Jakarta St., Malang 65115, East Java, Indonesia",-7.964697099758567,112.62017399031167,"['building', 'building.catering', 'catering', 'catering.restaurant']",geoapify,Kota Malang,4.1,1995
The Grove Cafe,Unknown,"The Grove Cafe, Wilis St., Malang 65115, East Java, Indonesia",-7.97255629975904,112.61844887448892,"['building', 'building.catering', 'catering', 'catering.cafe']",geoapify,Kota Malang,4.5,293
Kaizen,Unknown,"Kaizen, Wilis St., Malang 65115, East Java, Indonesia",-7.972612499759047,112.61826119434654,"['building', 'building.catering', 'catering', 'catering.restaurant']",geoapify,Kota Malang,3.7,55
Neo Kedaton,Unknown,"Neo Kedaton, Wilis St., Malang 65115, East Java, Indonesia",-7.972542149759039,112.61977504163715,"['building', 'building.catering', 'catering', 'catering.restaurant']",geoapify,Kota Malang,3.8,1375
Warung Rindu,Unknown,"Warung Rindu, Merbabu St., RW 05 Kel. Oro Oro Dowo, Klojen Kota Malang, Malang 65115, East Java, Indonesia",-7.967687299758751,112.62539224910938,"['catering', 'catering.restaurant']",geoapify,Kota Malang,4.7,183
Bangi Kopitiam,Unknown,"Bangi Kopitiam, Retawu St., Malang 65112, East Java, Indonesia",-7.969919949758886,112.6192949970926,"['building', 'building.catering', 'catering', 'catering.cafe']",geoapify,Kota Malang,3.6,1833
Warung Lesehan Yogyakarta,Unknown,"Warung Lesehan Yogyakarta, Jalan Lembah Dieng, Pandanlandung 16145, East Java, Indonesia",-7.966988699758714,112.59985932329356,"['catering', 'catering.restaurant']",geoapify,Kota Malang,4.3,1078
Sego Sambel,Unknown,"Sego Sambel, Jalan Esberg, Malang 65112, East Java, Indonesia",-7.961258949758372,112.5993634929898,"['catering', 'catering.restaurant']",geoapify,Kota Malang,3.8,971
Bubur Jang Kie,Unknown,"Bubur Jang Kie, Jalan Kepundung, Malang 65100, East Java, Indonesia",-7.97446719975915,112.61451704689335,"['building', 'building.catering', 'catering', 'catering.restaurant']",geoapify,Kota Malang,4.8,569
Special Soto Boyolali SSB Hj. Hesti Widodo,Unknown,"Special Soto Boyolali SSB Hj. Hesti Widodo, Jalan Leci, Malang 65100, East Java, Indonesia",-7.974674849759165,112.61315029927736,"['building', 'building.catering', 'catering', 'catering.restaurant']",geoapify,Kota Malang,3.7,1255
Cafe Litchi,Unknown,"Cafe Litchi, Jalan Leci 1, Malang 65100, East Java, Indonesia",-7.974703799759166,112.6133260706867,"['building', 'building.catering', 'catering', 'catering.cafe']",geoapify,Kota Malang,4.4,162
Depot Santo Yusup,Unknown,"Depot Santo Yusup, Jalan Simpang Borobudur 1A, Malang 65125, East Java, Indonesia",-7.940062849757114,112.63855374255522,"['building', 'building.catering', 'catering', 'catering.restaurant', 'catering.restaurant.chinese']",geoapify,Kota Malang,3.9,1158
Ayam Geprek Sa`i,Unknown,"Ayam Geprek Sa`i, Jalan Tebo Utara Gang 4, Malang 65147, East Java, Indonesia",-7.985010599759793,112.60170826888867,"['building', 'building.catering', 'catering', 'catering.restaurant']",geoapify,Kota Malang,3.9,1363
Ayam Goreng Pemuda,Unknown,"Ayam Goreng Pemuda, Semeru St., RW 08 Kel. Oro Oro Dowo, Klojen Kota Malang, Malang 65119, East Java, Indonesia",-7.975438599759215,112.62655819534949,"['building', 'building.catering', 'catering', 'catering.restaurant']",geoapify,Kota Malang,4.2,654
Onokatsu,Unknown,"Onokatsu, Jalan Sanggabuana, Malang 65115, East Java, Indonesia",-7.9726953497590545,112.61346940656401,"['building', 'building.catering', 'catering', 'catering.restaurant', 'catering.restaurant.japanese']",geoapify,Kota Malang,4.6,1561
Nomu,Unknown,"Nomu, Jalan Pandan, Malang 65115, East Java, Indonesia",-7.973879749759122,112.61817893317335,"['building', 'building.catering', 'catering', 'catering.restaurant']",geoapify,Kota Malang,4.4,1925
Kopi Ortu,Unknown,"Kopi Ortu, Jalan Terusan Kawi, Malang 65115, East Java, Indonesia",-7.974226149759139,112.61617805494924,"['building', 'building.catering', 'catering', 'catering.cafe']",geoapify,Kota Malang,3.8,1885
Richeese Factory,Unknown,"Richeese Factory, Jalan Kawi, Malang 65116, East Java, Indonesia",-7.979873149759477,112.62644075423485,"['building', 'building.catering', 'catering', 'catering.fast_food']",geoapify,Kota Malang,3.7,50
Tahu telor,Unknown,"Tahu telor, Gresik St., Malang 65115, East Java, Indonesia",-7.96615944975866,112.61752574680698,"['building', 'building.catering', 'catering', 'catering.restaurant']",geoapify,Kota Malang,3.7,1332
Moshi Moshi Ramen,Unknown,"Moshi Moshi Ramen, Kawi Street, Malang 65100, East Java, Indonesia",-7.975361949759208,112.61912244173362,"['building', 'building.catering', 'building.commercial', 'catering', 'catering.restaurant', 'catering.restaurant.japanese']",geoapify,Kota Malang,4.7,1663
Depot Kawi 21,Unknown,"Depot Kawi 21, Kawi Street 21, Malang 65100, East Java, Indonesia",-7.975300699759195,112.61894734948223,"['building', 'building.catering', 'building.commercial', 'catering', 'catering.restaurant']",geoapify,Kota Malang,4.6,430
Depot Purnama,Unknown,"Depot Purnama, Kawi Street 18, Malang 65100, East Java, Indonesia",-7.9752597997592085,112.61884747131633,"['building', 'building.catering', 'building.commercial', 'catering', 'catering.restaurant']",geoapify,Kota Malang,3.7,1699
Sate Ayam dan Kambing Sakinah,Unknown,"Sate Ayam dan Kambing Sakinah, Jalan Bandulan, Malang 65147, East Java, Indonesia",-7.982221449759614,112.6032358056803,"['building', 'building.catering', 'catering', 'catering.fast_food']",geoapify,Kota Malang,3.7,776
Zocco,Unknown,"Zocco, Jalan Sanggabuana, Malang 65115, East Java, Indonesia",-7.972603299759042,112.61350097189074,"['building', 'building.catering', 'catering', 'catering.cafe']",geoapify,Kota Malang,4.0,1160
Pawvillion Dog Café,Unknown,"Pawvillion Dog Café, Jalan Kesemek 4, Malang 65100, East Java, Indonesia",-7.979072499759425,112.61263330809703,"['building', 'building.catering', 'catering', 'catering.cafe']",geoapify,Kota Malang,3.5,1884
Kotäsk Kaffe Co.,Unknown,"Kotäsk Kaffe Co., Jalan Raya Langsep 2B, Malang 65100, East Java, Indonesia",-7.975505349759217,112.6123038723663,"['building', 'building.catering', 'catering', 'catering.cafe']",geoapify,Kota Malang,4.1,1917
Warkop Agam Banglades,Unknown,"Warkop Agam Banglades, Jalan Raya Langsep, Malang 65100, East Java, Indonesia",-7.975129699759199,112.61241774499999,"['building', 'building.catering', 'catering', 'catering.restaurant']",geoapify,Kota Malang,4.7,1330
Sabana Fried Chicken,Unknown,"Sabana Fried Chicken, Jalan Bandulan Barat, Malang 65147, East Java, Indonesia",-7.98210169975961,112.60279232535937,"['building', 'building.catering', 'catering', 'catering.fast_food']",geoapify,Kota Malang,3.8,1208
Kopicu,Unknown,"Kopicu, Jalan Istana Dieng Timur V, Malang 65100, East Java, Indonesia",-7.977778499759354,112.60576040544416,"['building', 'building.catering', 'catering', 'catering.cafe', 'catering.cafe.coffee', 'catering.cafe.coffee_shop']",geoapify,Kota Malang,4.4,1478
Sari Lambau,Unknown,"Sari Lambau, Jalan Terusan Ijen, Malang 65100, East Java, Indonesia",-7.9779619497593615,112.6197327489945,"['building', 'building.catering', 'catering', 'catering.cafe']",geoapify,Kota Malang,4.0,328
Piring Asia,Unknown,"Piring Asia, Wilis St., Malang 65115, East Java, Indonesia",-7.972585149759044,112.61959237707214,"['building', 'building.catering', 'catering', 'catering.restaurant', 'catering.restaurant.asian']",geoapify,Kota Malang,4.7,946
Mutiara Minang,Unknown,"Mutiara Minang, Jalan Klampok Kasri Gang 2 D, Malang 65115, East Java, Indonesia",-7.968551749758811,112.61356229051091,"['building', 'building.catering', 'catering', 'catering.restaurant']",geoapify,Kota Malang,4.6,804
Gogo Fried Chicken,Unknown,"Gogo Fried Chicken, Jalan Galunggung, Malang 65115, East Java, Indonesia",-7.967602399758743,112.61329742473856,"['building', 'building.catering', 'catering', 'catering.fast_food']",geoapify,Kota Malang,4.1,514
Galang 8,Unknown,"Galang 8, Kawi Street, Malang 65100, East Java, Indonesia",-7.975236599759205,112.61878202552008,"['building', 'building.catering', 'building.commercial', 'catering', 'catering.restaurant']",geoapify,Kota Malang,4.1,514
Rawon Tessy,Unknown,"Rawon Tessy, Kawi Street, Malang 65100, East Java, Indonesia",-7.975123649759189,112.61846349408833,"['building', 'building.catering', 'building.commercial', 'catering', 'catering.restaurant']",geoapify,Kota Malang,4.1,304
Legit,Unknown,"Legit, Kawi Street, Malang 65100, East Java, Indonesia",-7.9751938997592,112.61863498198005,"['building', 'building.catering', 'building.commercial', 'catering', 'catering.restaurant', 'catering.restaurant.indonesian']",geoapify,Kota Malang,4.2,855
Pizza Hut,Unknown,"Pizza Hut, Semeru St., Malang 65119, East Java, Indonesia",-7.9763317997592615,112.62708816244876,"['building', 'building.catering', 'catering', 'catering.restaurant', 'catering.restaurant.pizza']",geoapify,Kota Malang,4.4,805
Naiki,Unknown,"Naiki, Semeru St., RW 08 Kel. Oro Oro Dowo, Klojen Kota Malang, Malang 65119, East Java, Indonesia",-7.975039049759188,112.62628883440323,"['building', 'building.catering', 'catering', 'catering.cafe']",geoapify,Kota Malang,4.4,755
Kopi Kenangan,Unknown,"Kopi Kenangan, Kawi Street, Malang 65100, East Java, Indonesia",-7.975540099759215,112.61962613192857,"['building', 'building.catering', 'building.commercial', 'catering', 'catering.cafe', 'catering.cafe.coffee', 'catering.cafe.coffee_shop', 'halal', 'halal.only']",geoapify,Kota Malang,4.3,1581
Nasi Bhuk Kawi Hj. Saudah,Unknown,"Nasi Bhuk Kawi Hj. Saudah, Kawi Street, Malang 65100, East Java, Indonesia",-7.975565199759217,112.6197088819997,"['building', 'building.catering', 'building.commercial', 'catering', 'catering.restaurant']",geoapify,Kota Malang,4.3,190
Sate Ayam Ponorogo Siboen,Unknown,"Sate Ayam Ponorogo Siboen, Kawi Street 27, Malang 65100, East Java, Indonesia",-7.975408799759206,112.61928233383972,"['building', 'building.catering', 'building.commercial', 'catering', 'catering.restaurant']",geoapify,Kota Malang,4.6,958
Kedai Soto Banjar,Unknown,"Kedai Soto Banjar, Jalan Terusan Ijen 22, Malang 65100, East Java, Indonesia",-7.976497649759272,112.62025816750173,"['building', 'building.catering', 'catering', 'catering.restaurant']",geoapify,Kota Malang,4.2,1015
Ayam Goreng Rempah Lohjinawi,Unknown,"Ayam Goreng Rempah Lohjinawi, Jalan Mundu 3, Malang 65100, East Java, Indonesia",-7.97425184975914,112.61570921756243,"['building', 'building.catering', 'catering', 'catering.restaurant', 'halal']",geoapify,Kota Malang,4.1,1386
Rawon Jenggot,Unknown,"Rawon Jenggot, Jalan Simpang Kawi, Malang 65100, East Java, Indonesia",-7.9751453497592,112.61798334360664,"['building', 'building.catering', 'catering', 'catering.restaurant']",geoapify,Kota Malang,3.5,1534
Depot Widari,Unknown,"Depot Widari, Kawi Street 33, Malang 65100, East Java, Indonesia",-7.975520449759218,112.61947713923138,"['building', 'building.catering', 'catering', 'catering.restaurant']",geoapify,Kota Malang,4.2,242
Depot Varia,Unknown,"Depot Varia, Kawi Street, Malang 65100, East Java, Indonesia",-7.975532699759215,112.61957789331896,"['building', 'building.catering', 'catering', 'catering.restaurant']",geoapify,Kota Malang,4.6,1075
Bakso Pak Rindu,Unknown,"Bakso Pak Rindu, Jalan Bandulan, Malang 65147, East Java, Indonesia",-7.982253049759622,112.60289299376645,"['building', 'building.catering', 'catering', 'catering.restaurant']",geoapify,Kota Malang,3.6,1295
Bakso Solo Pak Dji,Unknown,"Bakso Solo Pak Dji, Jalan Bandulan 6D 800A, Malang 65147, East Java, Indonesia",-7.982222399759619,112.60853318709633,"['building', 'building.catering', 'catering', 'catering.restaurant']",geoapify,Kota Malang,4.5,669
Mie Pangsit & Bakso Atlantik,Unknown,"Mie Pangsit & Bakso Atlantik, Jalan Mergan, Malang 65147, East Java, Indonesia",-7.983747699759707,112.61425579139862,"['building', 'building.catering', 'catering', 'catering.restaurant']",geoapify,Kota Malang,4.5,187
Bakwan Subur B2/Babi,Unknown,"Bakwan Subur B2/Babi, Jalan Wuni 25, Malang 65100, East Java, Indonesia",-7.979111549759426,112.61407900677483,"['building', 'building.catering', 'building.residential', 'catering', 'catering.restaurant']",geoapify,Kota Malang,3.9,1887
Atenk Cuisine,Unknown,"Atenk Cuisine, Jalan Wuni 23, Malang 65100, East Java, Indonesia",-7.979060599759434,112.6141427872353,"['building', 'building.catering', 'building.residential', 'catering', 'catering.restaurant']",geoapify,Kota Malang,4.8,1967
Sego Srimben Bu Tjipto,Unknown,"Sego Srimben Bu Tjipto, Jalan Raya Langsep, Malang 65100, East Java, Indonesia",-7.978889399759423,112.61360960522899,"['building', 'building.catering', 'catering', 'catering.restaurant']",geoapify,Kota Malang,4.6,794
Chicken Box,Unknown,"Chicken Box, Jalan Raya Langsep, Malang 65100, East Java, Indonesia",-7.978763499759412,112.61295844419959,"['building', 'building.catering', 'catering', 'catering.restaurant', 'catering.restaurant.chicken']",geoapify,Kota Malang,3.9,606
Pecel & Soto Khas Pacitan,Unknown,"Pecel & Soto Khas Pacitan, Jalan Pelabuhan Tanjung Emas, Sidorahayu 65147, East Java, Indonesia",-7.997101299760502,112.60033895121553,"['building', 'building.catering', 'catering', 'catering.restaurant']",geoapify,Kota Malang,4.3,1237
Dapur Meme,Unknown,"Dapur Meme, Jalan Kepundung, Malang 65100, East Java, Indonesia",-7.976141649759251,112.61449144679345,"['building', 'building.catering', 'catering', 'catering.restaurant']",geoapify,Kota Malang,3.5,62
Special Belut Mergan,Unknown,"Special Belut Mergan, Jalan Jupri, Malang 65147, East Java, Indonesia",-7.983866049759715,112.6126231081252,"['building', 'building.catering', 'catering', 'catering.restaurant']",geoapify,Kota Malang,4.3,948
Pangsit Mie & Wonton Kuah Rejeki,Unknown,"Pangsit Mie & Wonton Kuah Rejeki, Jalan Bandulan, Malang 65147, East Java, Indonesia",-7.982281799759621,112.60393241378736,"['building', 'building.catering', 'catering', 'catering.restaurant']",geoapify,Kota Malang,4.6,1166
Sego Sambel Cak Uut,Unknown,"Sego Sambel Cak Uut, Jalan Simpang Raya Langsep, Malang 65100, East Java, Indonesia",-7.978968899759419,112.61130075772803,"['building', 'building.catering', 'catering', 'catering.restaurant']",geoapify,Kota Malang,4.8,169
Potre Koneng Ayam Kremes Madura,Unknown,"Potre Koneng Ayam Kremes Madura, Wilis St., Malang 65115, East Java, Indonesia",-7.9730800497590755,112.61576221435035,"['building', 'building.catering', 'catering', 'catering.restaurant']",geoapify,Kota Malang,3.6,946
gang jangkrik,Unknown,"gang jangkrik, Jalan Letnan Jenderal Siswondo Parman, Malang 65122, East Java, Indonesia",-7.957557999758152,112.6379083,"['catering', 'catering.restaurant', 'catering.restaurant.asian']",geoapify,Kota Malang,3.9,1798
cofe POM,Unknown,"cofe POM, Jalan Ciliwung, Malang 65122, East Java, Indonesia",-7.952446499757851,112.6394961,"['catering', 'catering.cafe']",geoapify,Kota Malang,3.8,129
KFC,Unknown,"KFC, Jalan Panderman, Malang 65115, East Java, Indonesia",-7.975102199759186,112.61957509999999,"['catering', 'catering.fast_food']",geoapify,Kota Malang,4.5,820
Depot 69,Unknown,"Depot 69, Jalan Borobudur, Malang 65142, East Java, Indonesia",-7.938614499757025,112.63397079999999,"['catering', 'catering.restaurant', 'catering.restaurant.chinese']",geoapify,Kabupaten Malang,4.0,911
Tempe Penyet Mbah Djayus,Unknown,"Tempe Penyet Mbah Djayus, Jalan Candi Sewu, Malang 65125, East Java, Indonesia",-7.939464799757085,112.63521309999999,"['catering', 'catering.restaurant', 'catering.restaurant.regional']",geoapify,Kabupaten Malang,3.9,1283
Bakso Bakar AMB,Unknown,"Bakso Bakar AMB, Jalan Candi Trowulan, Malang 65125, East Java, Indonesia",-7.941282699757189,112.6381554,"['catering', 'catering.restaurant', 'catering.restaurant.regional']",geoapify,Kota Malang,4.6,728
Warung Cak Pi'i,Unknown,"Warung Cak Pi'i, Jalan Soekarno-Hatta, Malang 65142, East Java, Indonesia",-7.939279199757066,112.63221089999999,"['catering', 'catering.restaurant', 'catering.restaurant.regional']",geoapify,Kabupaten Malang,4.8,525
Bakso Solo Kidul Pasar,Unknown,"Bakso Solo Kidul Pasar, Jalan Halmahera, Malang 65117, East Java, Indonesia",-7.98844859975999,112.62968269999999,"['catering', 'catering.fast_food']",geoapify,Kota Malang,4.7,755
Urban Pop,Unknown,"Urban Pop, Jalan Danau Maninjau, Malang 65139, East Java, Indonesia",-7.974431699759156,112.6577192,"['catering', 'catering.restaurant']",geoapify,Kota Malang,4.3,1335
Rumah Opa,Unknown,"Rumah Opa, Welirang St., RW 07 Kel. Oro Oro Dowo, Klojen Kota Malang, Malang 65115, East Java, Indonesia",-7.972672399759051,112.62401729999999,"['catering', 'catering.restaurant', 'internet_access']",geoapify,Kota Malang,4.0,1357
Bakso Solo SMA 5 Malang,Unknown,"Bakso Solo SMA 5 Malang, Jalan Nusa Kambangan, Malang 65117, East Java, Indonesia",-7.987928899759963,112.62591809999999,"['catering', 'catering.restaurant']",geoapify,Kota Malang,3.9,1264
Warung Pecel Pak Mul,Unknown,"Warung Pecel Pak Mul, Jalan Tanimbar, Malang 65117, East Java, Indonesia",-7.990337999760097,112.6272616,"['catering', 'catering.restaurant']",geoapify,Kota Malang,3.7,345
Bakso Tek Wan,Unknown,"Bakso Tek Wan, Jalan Taman Riau, Malang 65117, East Java, Indonesia",-7.9913947997601715,112.62793029999999,"['catering', 'catering.restaurant']",geoapify,Kota Malang,4.6,916
Soto Ayam Lombok Sulawesi,Unknown,"Soto Ayam Lombok Sulawesi, Jalan Flores, Malang 65117, East Java, Indonesia",-7.988264199759984,112.6256758,"['catering', 'catering.restaurant']",geoapify,Kota Malang,4.1,1521
Bakso Solo Petra,Unknown,"Bakso Solo Petra, Jalan Profesor Mohammad Yamin, Malang 65117, East Java, Indonesia",-7.990427799760114,112.63173000000002,"['catering', 'catering.restaurant']",geoapify,Kota Malang,4.0,1236
Soto Ayam Sempu,Unknown,"Soto Ayam Sempu, Jalan Sempu, Malang 65117, East Java, Indonesia",-7.994137599760335,112.62468759999999,"['catering', 'catering.restaurant']",geoapify,Kota Malang,4.2,1235
Coffee Taste,Unknown,"Coffee Taste, Jalan Ngantang, Malang 65122, East Java, Indonesia",-7.960058999758296,112.63265869999998,"['catering', 'catering.cafe', 'commercial', 'commercial.food_and_drink', 'commercial.food_and_drink.coffee_and_tea']",geoapify,Kota Malang,4.6,1806
Dapoer Mie Galau,Unknown,"Dapoer Mie Galau, Jalan Selorejo, Malang 65122, East Java, Indonesia",-7.9547814997579875,112.63347129999998,"['catering', 'catering.restaurant']",geoapify,Kota Malang,4.3,93
Warung Wareg,Unknown,"Warung Wareg, Jalan Sudanco Supriyadi, RW 04 Kel. Sukun, Sukun, Kota Malang, Malang 65148, East Java, Indonesia",-8.0087450997612,112.6196038,"['catering', 'catering.restaurant']",geoapify,Kota Malang,4.2,232
Legipait,Unknown,"Legipait, Jalan Pattimura, Malang 65111, East Java, Indonesia",-7.973235499759074,112.634788,"['catering', 'catering.cafe']",geoapify,Kota Malang,3.8,559
McDonald's,Unknown,"McDonald's, Jalan Jenderal Basuki Rachmat, Malang 65119, East Java, Indonesia",-7.980840999759529,112.630645,"['catering', 'catering.fast_food', 'catering.fast_food.burger', 'internet_access']",geoapify,Kota Malang,4.1,1500
Gadjah Mada,Unknown,"Gadjah Mada, Jalan Sersan K.K.O. Harun, Malang 65118, East Java, Indonesia",-7.987473499759928,112.6320259,"['catering', 'catering.restaurant']",geoapify,Kota Malang,3.7,268
Bebek Gong CBK.,Unknown,"Bebek Gong CBK., Jalan Dokter Sutomo, Malang 65111, East Java, Indonesia",-7.971818099759002,112.6356155,"['catering', 'catering.restaurant']",geoapify,Kota Malang,4.5,926
Cak Tomo (seafood&lalapan),Unknown,"Cak Tomo (seafood&lalapan), Jalan Brigadir Jenderal Slamet Riyadi, RW 03 Kel. Oro Oro Dowo, Klojen Kota Malang, Malang 65115, East Java, Indonesia",-7.963724799758508,112.6271134,"['catering', 'catering.restaurant', 'catering.restaurant.indonesian']",geoapify,Kota Malang,4.1,290
Warung Lupa Diet,Unknown,"Warung Lupa Diet, Jalan Kawi, Malang 65116, East Java, Indonesia",-7.980201999759497,112.62672469999998,"['catering', 'catering.restaurant', 'catering.restaurant.indonesian', 'internet_access']",geoapify,Kota Malang,4.5,1861
Tahu Telor Cahndeso,Unknown,"Tahu Telor Cahndeso, Surabaya St. 56, Kelurahan Sumbersari 65115, East Java, Indonesia",-7.963831199758524,112.614188,"['catering', 'catering.restaurant', 'catering.restaurant.indonesian']",geoapify,Kota Malang,4.5,1188
Cafe Willis,Unknown,"Cafe Willis, Wilis St., Malang 65115, East Java, Indonesia",-7.972634499759039,112.6210244,"['catering', 'catering.cafe']",geoapify,Kota Malang,4.2,478
Dunkin',Unknown,"Dunkin', Jalan Merdeka Timur, Malang 65119, East Java, Indonesia",-7.981931399759594,112.632053,"['catering', 'catering.fast_food']",geoapify,Kota Malang,3.8,280
"Kedai Robara (Roti bakar, coffee)",Unknown,"Kedai Robara (Roti bakar, coffee), Jalan Cipanas, Malang 65113, East Java, Indonesia",-7.958150299758183,112.6208076,"['catering', 'catering.cafe']",geoapify,Kota Malang,3.9,1741
Noch Coffee,Unknown,"Noch Coffee, Jalan Suropati, Malang 65111, East Java, Indonesia",-7.975251499759196,112.6345537,"['catering', 'catering.cafe']",geoapify,Kota Malang,3.9,1108
DPT KEDAWUNG,Unknown,"DPT KEDAWUNG, Jalan Kedawung, Malang 65122, East Java, Indonesia",-7.952803699757872,112.6385522,"['catering', 'catering.restaurant']",geoapify,Kota Malang,4.2,1820
Kopi Tuju,Unknown,"Kopi Tuju, Jalan Sutan Syahrir 7, Malang 65118, East Java, Indonesia",-7.985592499759819,112.6309825,"['catering', 'catering.cafe', 'catering.cafe.coffee', 'catering.cafe.coffee_shop']",geoapify,Kota Malang,3.7,1557
Starbucks,Unknown,"Starbucks, Jalan Terusan Dieng, Malang 65115, East Java, Indonesia",-7.973515099759108,112.61196609999999,"['catering', 'catering.cafe', 'catering.cafe.coffee', 'catering.cafe.coffee_shop', 'internet_access']",geoapify,Kota Malang,4.6,1970
J.Co,Unknown,"J.Co, Jalan Terusan Dieng, Malang 65115, East Java, Indonesia",-7.973500099759088,112.61145209999998,"['catering', 'catering.fast_food', 'internet_access']",geoapify,Kota Malang,4.6,51
